time,.header.seq,.header.stamp.secs,.header.stamp.nsecs,.header.frame_id,.pose.position.x,.pose.position.y,.pose.position.z,.pose.orientation.x,.pose.orientation.y,.pose.orientation.z,.pose.orientation.w
2021/06/10/18:44:21.070482,3,1623343459,75589053,world,-0.0919540673494,0.0016332603991,0.231586813927,0.00119640422054,0.00736537529156,-0.0046050157398,-0.999961614609
2021/06/10/18:44:21.070532,4,1623343459,95650595,world,-0.09196382761,0.00163266435266,0.231585234404,0.00125223735813,0.00735194142908,-0.00461852410808,-0.999961614609
2021/06/10/18:44:21.074399,5,1623343459,115465636,world,-0.0919504389167,0.00163720548153,0.231593817472,0.001222333638,0.00737443007529,-0.00463827000931,-0.99996137619
2021/06/10/18:44:21.074546,6,1623343459,135463803,world,-0.0919426232576,0.0016329176724,0.231590002775,0.00122767605353,0.00741079822183,-0.00462838308886,-0.999961078167
2021/06/10/18:44:21.074809,7,1623343459,155463178,world,-0.0919586122036,0.00164153426886,0.231582075357,0.00119524239562,0.00736396247521,-0.00466812588274,-0.999961316586
2021/06/10/18:44:21.074855,8,1623343459,175444678,world,-0.0919046252966,0.00166673585773,0.231588229537,0.00114838557784,0.00745894247666,-0.0048136934638,-0.999960005283
2021/06/10/18:44:21.075024,9,1623343459,205520886,world,-0.0919530913234,0.00163900479674,0.231585651636,0.00120643747505,0.00739695550874,-0.00462915096432,-0.999961197376
2021/06/10/18:44:21.075505,10,1623343459,215483053,world,-0.0919613987207,0.00164077430964,0.231582924724,0.0011744282674,0.00736959418282,-0.00465500447899,-0.99996137619
2021/06/10/18:44:21.075556,11,1623343459,235598886,world,-0.0919371247292,0.00162690505385,0.231589883566,0.00119469861966,0.00738934101537,-0.00464631058276,-0.999961197376
2021/06/10/18:44:21.075676,12,1623343459,255551011,world,-0.0919649973512,0.00163393467665,0.23158583045,0.00122250150889,0.00738644227386,-0.00464900769293,-0.999961197376
2021/06/10/18:44:21.075711,13,1623343459,285484136,world,-0.091908544302,0.00167267397046,0.231593251228,0.00112804805394,0.00745524419472,-0.0048005040735,-0.999960064888
2021/06/10/18:44:21.078564,14,1623343459,295548428,world,-0.0919154435396,0.00167789310217,0.231589972973,0.00112923618872,0.00742145301774,-0.00480534601957,-0.999960303307
2021/06/10/18:44:21.078609,15,1623343459,315468553,world,-0.0919243097305,0.00168426707387,0.231586486101,0.00112034741323,0.0074306554161,-0.00481238728389,-0.999960243702
2021/06/10/18:44:21.078653,16,1623343459,335744803,world,-0.09190762043,0.0016752704978,0.231581866741,0.00111101509538,0.0074301850982,-0.00480173202232,-0.999960303307
2021/06/10/18:44:21.078691,17,1623343459,355530636,world,-0.0919265821576,0.00169096887112,0.231585115194,0.00109861348756,0.00744122266769,-0.00484941201285,-0.999960005283
2021/06/10/18:44:21.078730,18,1623343459,375563053,world,-0.0919502004981,0.00163587927818,0.23158416152,0.0011862119427,0.0073743192479,-0.00465882755816,-0.999961316586
2021/06/10/18:44:21.078768,19,1623343459,395649470,world,-0.0919235870242,0.00161535292864,0.231583505869,0.00124790938571,0.00743611995131,-0.00465082004666,-0.999960839748
2021/06/10/18:44:21.078874,20,1623343459,415522886,world,-0.0919487178326,0.00164363533258,0.231589704752,0.00118232646491,0.00738592818379,-0.00465401448309,-0.999961197376
2021/06/10/18:44:21.078948,21,1623343459,435563345,world,-0.091947555542,0.00163295120001,0.231588169932,0.00121670484077,0.00738931214437,-0.00463154353201,-0.999961316586
2021/06/10/18:44:21.079072,22,1623343459,455660261,world,-0.0919418931007,0.00163823366165,0.231597870588,0.00120198167861,0.00739103136584,-0.00468226056546,-0.999961018562
2021/06/10/18:44:21.079152,23,1623343459,475464220,world,-0.0919386595488,0.00164183974266,0.231579869986,0.00120382593013,0.00739396782592,-0.00466023618355,-0.999961137772
2021/06/10/18:44:21.080232,24,1623343459,495544553,world,-0.0919364839792,0.00164300948381,0.231574222445,0.00121180573478,0.00739834038541,-0.00465468456969,-0.999961078167
2021/06/10/18:44:21.080280,25,1623343459,515514845,world,-0.0919453203678,0.00163823738694,0.23159635067,0.00123322720174,0.00739480322227,-0.00466270279139,-0.999961078167
2021/06/10/18:44:21.080614,26,1623343459,535545428,world,-0.0919914096594,0.00157574936748,0.231578350067,0.00135898555163,0.00731522915885,-0.00456273835152,-0.999961912632
2021/06/10/18:44:21.080934,27,1623343459,565507595,world,-0.0919781029224,0.00158064067364,0.231572702527,0.00133730750531,0.00730441138148,-0.00461692130193,-0.999961793423
2021/06/10/18:44:21.081218,28,1623343459,575525386,world,-0.0919524505734,0.00164480879903,0.231585323811,0.00119666173123,0.00737694930285,-0.00464391056448,-0.999961316586
2021/06/10/18:44:21.081915,29,1623343459,595505636,world,-0.0919416993856,0.00164125114679,0.231586039066,0.00120446668006,0.00739235104993,-0.00464461930096,-0.999961197376
2021/06/10/18:44:21.082548,30,1623343459,615494303,world,-0.0919466018677,0.00164325907826,0.231586933136,0.00120507390238,0.00740285683423,-0.00464097550139,-0.999961197376
2021/06/10/18:44:21.083607,31,1623343459,635467095,world,-0.0919492542744,0.00162893161178,0.231585159898,0.00121926388238,0.00736156245694,-0.00463011115789,-0.999961435795
2021/06/10/18:44:21.084012,32,1623343459,665465636,world,-0.091943770647,0.00163871049881,0.231590881944,0.00121858238708,0.00737694278359,-0.00467220228165,-0.999961197376
2021/06/10/18:44:21.086766,33,1623343459,675513386,world,-0.0919342041016,0.00163878872991,0.231593042612,0.00121068465523,0.007397106383,-0.00465958891436,-0.999961137772
2021/06/10/18:44:21.086918,34,1623343459,695469011,world,-0.0919380187988,0.0016363710165,0.231581628323,0.00117286725435,0.00736639788374,-0.00465198699385,-0.99996137619
2021/06/10/18:44:21.087376,35,1623343459,715517803,world,-0.0919465869665,0.00163568556309,0.231588214636,0.00119970540982,0.0073875146918,-0.00465303799137,-0.999961256981
2021/06/10/18:44:21.088068,36,1623343459,735524011,world,-0.0919409990311,0.00164576247334,0.23158955574,0.00119277997874,0.00739207537845,-0.00465310551226,-0.999961137772
2021/06/10/18:44:21.088198,37,1623343459,765518595,world,-0.0919523835182,0.00162993744016,0.231583744287,0.00125265528914,0.00739143555984,-0.00466211419553,-0.999961078167
2021/06/10/18:44:21.088923,38,1623343459,775586928,world,-0.0919468700886,0.00164287909865,0.231586277485,0.00117546448018,0.00739961722866,-0.00465181004256,-0.999961197376
2021/06/10/18:44:21.089239,39,1623343459,795593386,world,-0.0919434726238,0.00163471326232,0.231582984328,0.00122455798555,0.00738703086972,-0.00465952092782,-0.999961197376
2021/06/10/18:44:21.091232,40,1623343459,815592511,world,-0.091943770647,0.00163515284657,0.231580764055,0.00121974491049,0.00737697444856,-0.00467690452933,-0.999961197376
2021/06/10/18:44:21.091531,41,1623343459,835529928,world,-0.0919575318694,0.00163510069251,0.231581673026,0.00123190076556,0.00736990151927,-0.00467846821994,-0.999961137772
2021/06/10/18:44:21.092289,42,1623343459,855449386,world,-0.0919545292854,0.00163300707936,0.231577157974,0.00118747900706,0.00738400779665,-0.00468515278772,-0.999961137772
2021/06/10/18:44:21.093147,43,1623343459,875440845,world,-0.0919502824545,0.00162776187062,0.231588363647,0.00124515965581,0.00737463263795,-0.00467311870307,-0.999961137772
2021/06/10/18:44:21.104435,44,1623343459,895505261,world,-0.0919533446431,0.00163941085339,0.231580525637,0.00119099183939,0.00738282129169,-0.00465018488467,-0.999961197376
2021/06/10/18:44:21.104558,45,1623343459,915518553,world,-0.0919399112463,0.00164077803493,0.231586366892,0.0012020264985,0.00738196447492,-0.00467113684863,-0.999961197376
2021/06/10/18:44:21.104734,46,1623343459,935491803,world,-0.0919483453035,0.00163082405925,0.231591850519,0.00125184294302,0.00737629365176,-0.004643634893,-0.999961256981
2021/06/10/18:44:21.105389,47,1623343459,955467761,world,-0.0919482260942,0.00163014605641,0.231584683061,0.00120560615323,0.00734133133665,-0.00464849872515,-0.999961614609
2021/06/10/18:44:21.108812,48,1623343459,975514303,world,-0.0919527709484,0.00163448601961,0.231594622135,0.0012061506277,0.00738375261426,-0.004666055087,-0.999961137772
2021/06/10/18:44:21.109023,49,1623343460,5506595,world,-0.0919545292854,0.00162597373128,0.231586799026,0.00124491704628,0.00734317256138,-0.00464913994074,-0.999961555004
2021/06/10/18:44:21.109332,50,1623343460,15574636,world,-0.0919866934419,0.0015689060092,0.231591433287,0.00137826474383,0.0072662695311,-0.00465243170038,-0.999961912632
2021/06/10/18:44:21.119202,51,1623343460,35576220,world,-0.0919395983219,0.00163673609495,0.231576427817,0.00120426528156,0.00736864795908,-0.00467211939394,-0.999961197376
2021/06/10/18:44:21.119710,52,1623343460,55773220,world,-0.09200514853,0.00156229361892,0.231581151485,0.00140498310793,0.00725915981457,-0.0045931590721,-0.999962151051
2021/06/10/18:44:21.119858,53,1623343460,75699428,world,-0.0919503122568,0.00161710381508,0.231593042612,0.00125417124946,0.00737344706431,-0.00465558608994,-0.999961256981
2021/06/10/18:44:21.123580,54,1623343460,95603970,world,-0.092003904283,0.00155841931701,0.231581136584,0.00140869314782,0.00722673116252,-0.00456977635622,-0.999962449074
2021/06/10/18:44:21.124442,55,1623343460,125528678,world,-0.0919411480427,0.00162770971656,0.231584444642,0.00119605078362,0.00738087575883,-0.00465571274981,-0.999961256981
2021/06/10/18:44:21.130541,56,1623343460,135650011,world,-0.0919484049082,0.00162528455257,0.231593266129,0.00122562318575,0.00733731733635,-0.004674019292,-0.999961435795
2021/06/10/18:44:21.131479,57,1623343460,155556595,world,-0.091952085495,0.00163244083524,0.231575727463,0.00124686898198,0.00733242742717,-0.0046678413637,-0.999961435795
2021/06/10/18:44:21.132041,58,1623343460,175619095,world,-0.09198448807,0.0015578456223,0.231585592031,0.00142449710984,0.00725660519674,-0.00461434246972,-0.999962031841
2021/06/10/18:44:21.132596,59,1623343460,195651220,world,-0.0919734686613,0.00156877934933,0.231591314077,0.00138984678779,0.00725394440815,-0.00462159141898,-0.999962091446
2021/06/10/18:44:21.137061,60,1623343460,215513345,world,-0.0919797196984,0.00156213343143,0.231588378549,0.00139958097134,0.00725357746705,-0.00456067966297,-0.999962329865
2021/06/10/18:44:21.137184,61,1623343460,235584011,world,-0.0919912606478,0.00155205279589,0.231602609158,0.00144646631088,0.00727752875537,-0.00458775879815,-0.999962031841
2021/06/10/18:44:21.138320,62,1623343460,255660803,world,-0.092003531754,0.00156383216381,0.231583103538,0.00137334235478,0.00721979979426,-0.00460442202166,-0.999962449074
2021/06/10/18:44:21.140070,63,1623343460,276609803,world,-0.0919437408447,0.0016211643815,0.231577157974,0.00125216669403,0.00734626455233,-0.0046483874321,-0.999961495399
2021/06/10/18:44:21.142203,64,1623343460,295520386,world,-0.0919840335846,0.00156538933516,0.231588304043,0.00137680012267,0.00725824991241,-0.00457286229357,-0.99996227026
2021/06/10/18:44:21.142818,65,1623343460,315484220,world,-0.0919896513224,0.00155679136515,0.231590569019,0.00138319656253,0.00726019358262,-0.00460343295708,-0.999962091446
2021/06/10/18:44:21.146267,66,1623343460,335518553,world,-0.0919353142381,0.00163796171546,0.231564253569,0.00121290097013,0.00737393135205,-0.00465396186337,-0.999961256981
2021/06/10/18:44:21.146625,67,1623343460,355792428,world,-0.0919888317585,0.00156753882766,0.231584087014,0.00136551202741,0.00725462893024,-0.0045856628567,-0.999962210655
2021/06/10/18:44:21.146863,68,1623343460,385658095,world,-0.091929897666,0.00164222717285,0.231593519449,0.00117093045264,0.00739577179775,-0.00467137573287,-0.999961078167
2021/06/10/18:44:21.147190,69,1623343460,395573886,world,-0.0919441580772,0.00162632763386,0.231574743986,0.00123277225066,0.00736663630232,-0.00463455170393,-0.999961435795
2021/06/10/18:44:21.147376,70,1623343460,415459136,world,-0.0919403582811,0.00163318216801,0.23157992959,0.00117887672968,0.00737551227212,-0.00468567339703,-0.999961197376
2021/06/10/18:44:21.150939,71,1623343460,435609928,world,-0.0919879749417,0.00156402587891,0.231589436531,0.00139660108835,0.00728836795315,-0.00456895912066,-0.999962031841
2021/06/10/18:44:21.151784,72,1623343460,455638511,world,-0.0919932126999,0.00157672539353,0.231580913067,0.00136923405807,0.00727319810539,-0.00461157085374,-0.999961972237
2021/06/10/18:44:21.156751,73,1623343460,485483053,world,-0.0919666439295,0.00155363231897,0.231576815248,0.00139757769648,0.00733630964532,-0.00460093235597,-0.999961614609
2021/06/10/18:44:21.157895,74,1623343460,495675886,world,-0.0919354408979,0.00163308903575,0.231569603086,0.00123167736456,0.0073957121931,-0.00464998418465,-0.999961078167
2021/06/10/18:44:21.166233,75,1623343460,515739303,world,-0.0919464528561,0.00162271037698,0.231577828526,0.001251224312,0.00736379018053,-0.00463099777699,-0.999961435795
2021/06/10/18:44:21.174309,76,1623343460,535565011,world,-0.0919459611177,0.0016366392374,0.231588244438,0.00122448685579,0.0073758084327,-0.00465918472037,-0.999961197376
2021/06/10/18:44:21.174395,77,1623343460,555541970,world,-0.0919409543276,0.00163747742772,0.231584310532,0.00118877901696,0.00740571133792,-0.00466382037848,-0.999961078167
2021/06/10/18:44:21.177387,78,1623343460,585587345,world,-0.0919422209263,0.00163590162992,0.231577396393,0.00119735847693,0.00740142539144,-0.00465913303196,-0.999961078167
2021/06/10/18:44:21.179028,79,1623343460,595555261,world,-0.0919468998909,0.00164005160332,0.231576085091,0.0012304065749,0.00738886231557,-0.00465224031359,-0.999961137772
2021/06/10/18:44:21.182042,80,1623343460,615484095,world,-0.0919480472803,0.00162843987346,0.231590762734,0.00121164589655,0.00739310542122,-0.00464006746188,-0.999961197376
2021/06/10/18:44:21.186298,81,1623343460,635471595,world,-0.091920748353,0.00162035599351,0.23158608377,0.00125554692931,0.0074436548166,-0.00470177736133,-0.999960541725
2021/06/10/18:44:21.186618,82,1623343460,655576470,world,-0.0919514298439,0.0016323029995,0.231580212712,0.00124271539971,0.00736844679341,-0.0046468754299,-0.99996137619
2021/06/10/18:44:21.190069,83,1623343460,685544136,world,-0.0919644907117,0.00163527950644,0.231579139829,0.00122902088333,0.0073726051487,-0.00464874645695,-0.999961256981
2021/06/10/18:44:21.190861,84,1623343460,696039678,world,-0.091949082911,0.00163647532463,0.231574207544,0.0011731616687,0.00737917702645,-0.00465077301487,-0.999961316586
2021/06/10/18:44:21.191485,85,1623343460,715478636,world,-0.0919447988272,0.00163550302386,0.231591120362,0.001209290931,0.00738842366263,-0.00464288238436,-0.999961256981
2021/06/10/18:44:21.194638,86,1623343460,735609845,world,-0.0919445604086,0.00163885951042,0.231578737497,0.00123026908841,0.0073841996491,-0.00464365817606,-0.999961197376
2021/06/10/18:44:21.194732,87,1623343460,755588011,world,-0.0919231623411,0.00168215855956,0.231573820114,0.00110131409019,0.00742690684274,-0.00481276679784,-0.999960303307
2021/06/10/18:44:21.196876,88,1623343460,775753261,world,-0.0919408649206,0.00163907185197,0.231587275863,0.00120890408289,0.00742067443207,-0.00466215284541,-0.999960839748
2021/06/10/18:44:21.196987,89,1623343460,795663636,world,-0.091942474246,0.00163679942489,0.231583803892,0.00119385647122,0.00737527292222,-0.00465876050293,-0.999961256981
2021/06/10/18:44:21.197153,90,1623343460,815467636,world,-0.0919510126114,0.00163324177265,0.231591537595,0.0012246548431,0.00739711942151,-0.00463792821392,-0.999961197376
2021/06/10/18:44:21.197909,91,1623343460,835539261,world,-0.0919436961412,0.00164848193526,0.23157222569,0.00118086265866,0.00741522712633,-0.00466233072802,-0.999960958958
2021/06/10/18:44:21.198156,92,1623343460,856061011,world,-0.0919388607144,0.00164670497179,0.231586501002,0.00116428418551,0.00740413088351,-0.0046946965158,-0.999960899353
2021/06/10/18:44:21.202266,93,1623343460,875558553,world,-0.0919390022755,0.0016460865736,0.231586277485,0.00120312580839,0.00741402013227,-0.00465410528705,-0.999960958958
2021/06/10/18:44:21.202376,94,1623343460,895591470,world,-0.0919409543276,0.00164275988936,0.231580346823,0.00120690313634,0.00739849032834,-0.0046421228908,-0.999961137772
2021/06/10/18:44:21.207399,95,1623343460,915495636,world,-0.0919488817453,0.00163944065571,0.231576815248,0.00118979555555,0.00733468588442,-0.00465973513201,-0.999961555004
2021/06/10/18:44:21.210695,96,1623343460,935568845,world,-0.0919447913766,0.0016360655427,0.231581643224,0.00122373073827,0.00739637343213,-0.0046197026968,-0.999961256981
2021/06/10/18:44:21.210774,97,1623343460,955647011,world,-0.0919189155102,0.00168381631374,0.231583893299,0.00115262088366,0.00743411295116,-0.00480778282508,-0.999960184097
2021/06/10/18:44:21.211681,98,1623343460,975561053,world,-0.0919505655766,0.00164188817143,0.231580808759,0.00122562760953,0.00741495238617,-0.00462277466431,-0.999961078167
2021/06/10/18:44:21.211923,99,1623343460,995587886,world,-0.0919465720654,0.00163798779249,0.231587648392,0.00121662649326,0.00739828916267,-0.00464250287041,-0.999961137772
2021/06/10/18:44:21.212329,100,1623343461,15468178,world,-0.0919446796179,0.00164570659399,0.23158583045,0.00118681194726,0.00738646555692,-0.00467402068898,-0.999961078167
2021/06/10/18:44:21.213167,101,1623343461,35448470,world,-0.0919508188963,0.00163793191314,0.231573194265,0.00120954785962,0.00737093528733,-0.00464563118294,-0.99996137619
2021/06/10/18:44:21.213983,102,1623343461,55540220,world,-0.0919889658689,0.00156859308481,0.231583371758,0.00136692798696,0.00729163875803,-0.00460479781032,-0.999961972237
2021/06/10/18:44:21.218099,103,1623343461,75975678,world,-0.0919421762228,0.00164668262005,0.231580942869,0.00116980529856,0.00740937609226,-0.00468711880967,-0.999960899353
2021/06/10/18:44:21.219380,104,1623343461,96631261,world,-0.0919518470764,0.00163577497005,0.231578171253,0.00121959927492,0.00736092962325,-0.00467626238242,-0.999961256981
2021/06/10/18:44:21.223436,105,1623343461,115553470,world,-0.0919594019651,0.00163504853845,0.231576025486,0.00121508049779,0.00740138906986,-0.00464015593752,-0.999961137772
2021/06/10/18:44:21.228754,106,1623343461,135586761,world,-0.0919533371925,0.00164759159088,0.231569796801,0.00120835227426,0.00736937252805,-0.00463690748438,-0.999961435795
2021/06/10/18:44:21.228823,107,1623343461,155584386,world,-0.0919859856367,0.00156765058637,0.231580018997,0.00138894538395,0.00729219755158,-0.00458891270682,-0.999961972237
2021/06/10/18:44:21.228988,108,1623343461,175590386,world,-0.0919521003962,0.00163532420993,0.231579869986,0.00121633184608,0.00738513609394,-0.00464099645615,-0.999961256981
2021/06/10/18:44:21.229038,109,1623343461,205564803,world,-0.0919528827071,0.00164484605193,0.231579437852,0.00120406795759,0.00739822117612,-0.0046527995728,-0.999961078167
2021/06/10/18:44:21.229232,110,1623343461,215529511,world,-0.0919522047043,0.00163473561406,0.231583595276,0.00123310415074,0.00739568145946,-0.00464521534741,-0.999961137772
2021/06/10/18:44:21.238534,111,1623343461,235606553,world,-0.091951072216,0.00164761394262,0.231585517526,0.00120570731815,0.00739935459569,-0.00469312444329,-0.999960899353
2021/06/10/18:44:21.282163,112,1623343461,265613636,world,-0.0919616296887,0.00163966417313,0.231579139829,0.00119156891014,0.00736799975857,-0.00464326189831,-0.99996137619
2021/06/10/18:44:21.282369,113,1623343461,275591928,world,-0.0919441729784,0.00164013728499,0.231582969427,0.00126579462085,0.00737665127963,-0.0046438286081,-0.999961256981
2021/06/10/18:44:21.311362,114,1623343461,305966303,world,-0.0919198021293,0.00168742239475,0.231578886509,0.00115265860222,0.00744570884854,-0.00479788240045,-0.999960124493
2021/06/10/18:44:21.316882,115,1623343461,315510595,world,-0.0919421985745,0.00164592638612,0.231578797102,0.00119504134636,0.00739008607343,-0.0046613314189,-0.999961137772
2021/06/10/18:44:21.338041,116,1623343461,335622470,world,-0.0919447243214,0.00164349749684,0.231588631868,0.00120824424084,0.0073837377131,-0.0046658613719,-0.999961197376
2021/06/10/18:44:21.356923,117,1623343461,355580928,world,-0.0919121727347,0.00168365612626,0.231581062078,0.00111886847299,0.00743635557592,-0.00481075560674,-0.999960184097
2021/06/10/18:44:21.377287,118,1623343461,375727636,world,-0.0919225811958,0.00167625024915,0.23157992959,0.00112762290519,0.00740960519761,-0.00477903615683,-0.999960482121
2021/06/10/18:44:21.407077,119,1623343461,405552636,world,-0.0919458046556,0.00162867829204,0.231596589088,0.00123116304167,0.00738772330806,-0.00462424056605,-0.999961316586
2021/06/10/18:44:21.425915,120,1623343461,415757970,world,-0.0919337123632,0.00163163244724,0.231590390205,0.00119387859013,0.00736942188814,-0.00462132599205,-0.999961495399
2021/06/10/18:44:21.442582,121,1623343461,435563886,world,-0.0919131264091,0.00169106572866,0.231579393148,0.00108861795161,0.00744217541069,-0.00484073115513,-0.999960064888
2021/06/10/18:44:21.456801,122,1623343461,455634720,world,-0.0919507741928,0.00163240730762,0.231572166085,0.00119836756494,0.00734870042652,-0.00461837509647,-0.999961674213
2021/06/10/18:44:21.477089,123,1623343461,475513511,world,-0.091939419508,0.00163122266531,0.231581270695,0.00120552431326,0.00736679183319,-0.00462479796261,-0.999961495399
2021/06/10/18:44:21.507231,124,1623343461,505635636,world,-0.0919453799725,0.00164487957954,0.231599450111,0.00113689119462,0.00740007823333,-0.00468698516488,-0.999961018562
2021/06/10/18:44:21.517604,125,1623343461,515671553,world,-0.0919463336468,0.00163492932916,0.231591194868,0.00120487273671,0.0074036763981,-0.00468094227836,-0.999960899353
2021/06/10/18:44:21.542623,126,1623343461,535666470,world,-0.0919388309121,0.0016277693212,0.231569051743,0.0012024998432,0.0073859365657,-0.00468118861318,-0.999961078167
2021/06/10/18:44:21.556774,127,1623343461,555593928,world,-0.0919545590878,0.00163016468287,0.23159712553,0.00121810554992,0.00736643699929,-0.00470414431766,-0.999961137772
2021/06/10/18:44:21.576594,128,1623343461,575701011,world,-0.0919460654259,0.00163338333368,0.231604084373,0.00122079858556,0.00735711306334,-0.00467736413702,-0.999961256981
2021/06/10/18:44:21.616265,129,1623343461,615616011,world,-0.0919261872768,0.00161930173635,0.231572091579,0.00121941312682,0.00736594526097,-0.00468707410619,-0.999961197376
2021/06/10/18:44:21.616963,130,1623343461,616047136,world,-0.0919431447983,0.00163546204567,0.231568157673,0.00115950079635,0.00739497458562,-0.00468346849084,-0.999961018562
2021/06/10/18:44:21.638874,131,1623343461,635598928,world,-0.0919432938099,0.00164143368602,0.231597542763,0.00120679149404,0.00738901412115,-0.00468364730477,-0.999961078167
2021/06/10/18:44:21.663315,132,1623343461,655589095,world,-0.0919399112463,0.00163242965937,0.231584653258,0.00123762665316,0.00736251706257,-0.00467737251893,-0.999961256981
2021/06/10/18:44:21.676832,133,1623343461,675610428,world,-0.0919310003519,0.00163579359651,0.231577157974,0.0011774796294,0.00739091308787,-0.00466772448272,-0.999961197376
2021/06/10/18:44:21.696836,134,1623343461,695638345,world,-0.0919318348169,0.00163144245744,0.231609076262,0.00123317504767,0.00739679997787,-0.00464733922854,-0.999961078167
2021/06/10/18:44:21.716622,135,1623343461,715620762,world,-0.0919344574213,0.00164753198624,0.231593608856,0.00120070029516,0.00739589007571,-0.00470050051808,-0.999960899353
2021/06/10/18:44:21.736456,136,1623343461,735634095,world,-0.0919539779425,0.00162114948034,0.231586843729,0.00127814803272,0.00732899457216,-0.00473170401528,-0.999961137772
2021/06/10/18:44:21.767094,137,1623343461,765531762,world,-0.0919245257974,0.00163491815329,0.231584519148,0.00120553583838,0.00738933356479,-0.00464938767254,-0.999961137772
2021/06/10/18:44:21.783585,138,1623343461,775702553,world,-0.0919385999441,0.00165619328618,0.231591254473,0.00117602269165,0.00737667270005,-0.00467449612916,-0.999961197376
2021/06/10/18:44:21.800798,139,1623343461,795931137,world,-0.0919402986765,0.00162837654352,0.231599003077,0.00124973081984,0.00740066729486,-0.0046490454115,-0.999961078167
2021/06/10/18:44:21.816663,140,1623343461,815677053,world,-0.0919268876314,0.00164152681828,0.231575161219,0.00121756526642,0.00739206792787,-0.00464118411765,-0.999961137772
2021/06/10/18:44:21.836339,141,1623343461,835602512,world,-0.0919514968991,0.00164141133428,0.231593281031,0.00120998360217,0.00737053202465,-0.0046246862039,-0.999961495399
2021/06/10/18:44:21.857281,142,1623343461,855689845,world,-0.0919510498643,0.00164068862796,0.23160046339,0.00122289638966,0.00738939316943,-0.00466515356675,-0.999961137772
2021/06/10/18:44:21.877385,143,1623343461,875764512,world,-0.0919229313731,0.00168336555362,0.231559962034,0.00112991046626,0.00741781666875,-0.00479616643861,-0.999960362911
2021/06/10/18:44:21.896614,144,1623343461,895648553,world,-0.0919512435794,0.00163900852203,0.231571316719,0.00122088845819,0.00738765718415,-0.00465689087287,-0.999961137772
2021/06/10/18:44:21.916048,145,1623343461,915522887,world,-0.0919465199113,0.00164517387748,0.231598287821,0.00120888161473,0.007384410128,-0.00467644259334,-0.999961137772
2021/06/10/18:44:21.936599,146,1623343461,935552387,world,-0.0919538289309,0.00164744257927,0.231593638659,0.00121585524175,0.00738624762744,-0.00468079280108,-0.999961018562
2021/06/10/18:44:21.956883,147,1623343461,955550512,world,-0.0919461995363,0.00162740796804,0.231557279825,0.00121635035612,0.0073502138257,-0.00464928150177,-0.999961495399
2021/06/10/18:44:21.976854,148,1623343461,975598928,world,-0.0919435322285,0.0016380622983,0.231581434608,0.00121430924628,0.00740600842983,-0.00462264660746,-0.999961197376
2021/06/10/18:44:21.998396,149,1623343461,995633053,world,-0.0920053124428,0.00157835334539,0.231594055891,0.00140630546957,0.00725328782573,-0.00459048384801,-0.99996227026
2021/06/10/18:44:22.026432,150,1623343462,25647178,world,-0.0919276997447,0.00163539871573,0.23157081008,0.00123485189397,0.00743105448782,-0.00468113040552,-0.999960660934
2021/06/10/18:44:22.036551,151,1623343462,35616053,world,-0.0919999182224,0.00157494843006,0.231572076678,0.0013579162769,0.00728584220633,-0.00459659425542,-0.999962031841
2021/06/10/18:44:22.058261,152,1623343462,55628720,world,-0.0919474065304,0.00163495540619,0.231586009264,0.00120780826546,0.00740766897798,-0.00465148827061,-0.999961018562
2021/06/10/18:44:22.079835,153,1623343462,75790178,world,-0.0919351130724,0.00163941830397,0.231584608555,0.00123228470329,0.00739650195464,-0.00466523645446,-0.999961018562
2021/06/10/18:44:22.096439,154,1623343462,95662595,world,-0.091955922544,0.00165120139718,0.231583863497,0.00120418716688,0.00737086916342,-0.00465727737173,-0.999961256981
2021/06/10/18:44:22.118135,155,1623343462,115610262,world,-0.0919460356236,0.00164256617427,0.231586441398,0.00122367113363,0.00740095600486,-0.00462579028681,-0.999961256981
2021/06/10/18:44:22.136420,156,1623343462,135524678,world,-0.091946080327,0.00164175778627,0.231586158276,0.00121840718202,0.00739174662158,-0.00467347586527,-0.999961018562
2021/06/10/18:44:22.156687,157,1623343462,155793720,world,-0.0919549688697,0.00163722783327,0.23158146441,0.0012538471492,0.00739430217072,-0.00462774978951,-0.999961256981
2021/06/10/18:44:22.177320,158,1623343462,175659262,world,-0.0919448435307,0.00163517892361,0.231572240591,0.0011907084845,0.00738657591864,-0.00464385841042,-0.999961316586
2021/06/10/18:44:22.196919,159,1623343462,195677720,world,-0.091984346509,0.00158305466175,0.231589362025,0.0013617426157,0.00730702653527,-0.0046008573845,-0.999961793423
2021/06/10/18:44:22.228589,160,1623343462,225611262,world,-0.0919438004494,0.00163812935352,0.231580197811,0.00120794237591,0.0073951962404,-0.00464072171599,-0.999961256981
2021/06/10/18:44:22.236394,161,1623343462,235662470,world,-0.0919541865587,0.00163403153419,0.231563851237,0.00123016117141,0.00739001994953,-0.00468411669135,-0.999961018562
2021/06/10/18:44:22.257247,162,1623343462,255765928,world,-0.0919541120529,0.00165150314569,0.231577187777,0.00116220104974,0.00737056834623,-0.00465205311775,-0.99996137619
2021/06/10/18:44:22.280674,163,1623343462,275786553,world,-0.0919291898608,0.00164602324367,0.231587827206,0.00120790535584,0.00739112263545,-0.00467552570626,-0.999961018562
2021/06/10/18:44:22.296947,164,1623343462,295638345,world,-0.0919858291745,0.00156928226352,0.231580466032,0.00138856552076,0.00728238606825,-0.004619483836,-0.999961912632
2021/06/10/18:44:22.332683,165,1623343462,326117637,world,-0.0919578075409,0.00163253769279,0.231564283371,0.00121885014232,0.00737235043198,-0.00461818184704,-0.999961495399
2021/06/10/18:44:22.336765,166,1623343462,335653012,world,-0.0919899940491,0.00156691297889,0.231576010585,0.00137500837445,0.00728184031323,-0.00458719069138,-0.999962091446
2021/06/10/18:44:22.368171,167,1623343462,365583845,world,-0.0919794216752,0.00158295407891,0.231577068567,0.00135158665944,0.00727655831724,-0.00461501302198,-0.999962031841
2021/06/10/18:44:22.376274,168,1623343462,375622095,world,-0.0919461771846,0.00163289904594,0.231575012207,0.00122563028708,0.00735548045486,-0.00460995547473,-0.999961614609
2021/06/10/18:44:22.396689,169,1623343462,395612095,world,-0.0920035094023,0.00157687067986,0.231564715505,0.00137335038744,0.00725938240066,-0.0045906775631,-0.99996227026
2021/06/10/18:44:22.417319,170,1623343462,416666012,world,-0.0919402167201,0.00165222585201,0.231568753719,0.00117400812451,0.00743076391518,-0.00468279980123,-0.999960720539
2021/06/10/18:44:22.438204,171,1623343462,435558803,world,-0.0919817090034,0.00156677141786,0.231576710939,0.00138579378836,0.00728707993403,-0.00461088586599,-0.999961912632
2021/06/10/18:44:22.457757,172,1623343462,455878178,world,-0.0919947996736,0.00157321989536,0.231575191021,0.00134863250423,0.00729431398213,-0.0045776097104,-0.999962031841
2021/06/10/18:44:22.476632,173,1623343462,475649845,world,-0.0919532999396,0.00163581222296,0.23156940937,0.00119543611072,0.007372262422,-0.00466291792691,-0.999961256981
2021/06/10/18:44:22.496498,174,1623343462,495625178,world,-0.0919874757528,0.001589410007,0.231571316719,0.00134279497433,0.00729116378352,-0.00465673161671,-0.999961733818
2021/06/10/18:44:22.517310,175,1623343462,515608970,world,-0.091991789639,0.00157027691603,0.231574833393,0.00140952423681,0.00726964883506,-0.00456614140421,-0.999962151051
2021/06/10/18:44:22.536432,176,1623343462,535653637,world,-0.0919946283102,0.00157189741731,0.231581643224,0.00139984558336,0.00727325584739,-0.00456851860508,-0.999962210655
2021/06/10/18:44:22.566512,177,1623343462,565595553,world,-0.0919446796179,0.0016479678452,0.231576412916,0.00121996831149,0.00738960271701,-0.00466176401824,-0.999961078167
2021/06/10/18:44:22.576658,178,1623343462,575670012,world,-0.0919859707355,0.00158498436213,0.23156017065,0.00137706880923,0.00731141446158,-0.00458418950438,-0.999961853027
2021/06/10/18:44:22.599296,179,1623343462,595935053,world,-0.0919533222914,0.00163906440139,0.231579244137,0.00124089745805,0.00736108561978,-0.00463203340769,-0.999961435795
2021/06/10/18:44:22.617312,180,1623343462,616056720,world,-0.091995947063,0.00158124417067,0.231586545706,0.00137516460381,0.00725852558389,-0.00458431430161,-0.999962210655
2021/06/10/18:44:22.636317,181,1623343462,635539720,world,-0.0919391289353,0.00164150819182,0.231574773788,0.00119952321984,0.00740197114646,-0.00467067537829,-0.999961078167
2021/06/10/18:44:22.657144,182,1623343462,655575720,world,-0.0919496491551,0.00163759663701,0.231574341655,0.00123533559963,0.00738537684083,-0.00465765828267,-0.999961197376
2021/06/10/18:44:22.686946,183,1623343462,685924012,world,-0.091943487525,0.00164774805307,0.231582462788,0.00120137841441,0.00740176998079,-0.00465725641698,-0.999961078167
2021/06/10/18:44:22.696337,184,1623343462,695636720,world,-0.0919354408979,0.00165037810802,0.231578499079,0.00119462038856,0.00739115895703,-0.0046647512354,-0.999961137772
2021/06/10/18:44:22.717844,185,1623343462,715621220,world,-0.0919215381145,0.0016363337636,0.231573745608,0.00123903574422,0.0074616856873,-0.00465804105625,-0.99996060133
2021/06/10/18:44:22.736159,186,1623343462,735619345,world,-0.0919468253851,0.00164419785142,0.231572210789,0.00121917866636,0.00739629426971,-0.00465771881863,-0.999961137772
2021/06/10/18:44:22.756946,187,1623343462,755499845,world,-0.0919440239668,0.00165698677301,0.231577992439,0.00118947157171,0.00737158348784,-0.00464277761057,-0.99996137619
2021/06/10/18:44:22.777984,188,1623343462,776015053,world,-0.0919338017702,0.00164305791259,0.231582075357,0.00119057460688,0.0074166781269,-0.00466362619773,-0.999960899353
2021/06/10/18:44:22.797144,189,1623343462,795815178,world,-0.0919461846352,0.0016355253756,0.231571376324,0.00119855813682,0.0073837377131,-0.00465026684105,-0.999961197376
2021/06/10/18:44:22.816724,190,1623343462,815731553,world,-0.091944873333,0.00164372473955,0.231581658125,0.00121185020544,0.00735278520733,-0.00464953575283,-0.999961435795
2021/06/10/18:44:22.836370,191,1623343462,835613095,world,-0.0919362902641,0.00164844840765,0.231581449509,0.00118967308663,0.00738765019923,-0.00467770174146,-0.999961078167
2021/06/10/18:44:22.858427,192,1623343462,855616512,world,-0.0919320434332,0.00164486095309,0.231570795178,0.001177543425,0.00740863382816,-0.00469001894817,-0.999960839748
2021/06/10/18:44:22.880032,193,1623343462,875552428,world,-0.0919477045536,0.00164127722383,0.231581434608,0.00120695098303,0.00737854838371,-0.00460453890264,-0.999961435795
2021/06/10/18:44:22.897464,194,1623343462,895667053,world,-0.0919418334961,0.00165800750256,0.231574982405,0.00119302200619,0.00737291062251,-0.00465321680531,-0.999961316586
2021/06/10/18:44:22.918621,195,1623343462,916435595,world,-0.0919338315725,0.00164631009102,0.231586277485,0.00120217970107,0.00741799967363,-0.0046729715541,-0.999960839748
2021/06/10/18:44:22.947432,196,1623343462,945638553,world,-0.0919588655233,0.00164164975286,0.231577008963,0.0011942400597,0.00736247887835,-0.00464847777039,-0.99996137619
2021/06/10/18:44:22.959964,197,1623343462,955650803,world,-0.0919332504272,0.00164745375514,0.231575071812,0.00117374304682,0.00738592073321,-0.004666055087,-0.999961197376
2021/06/10/18:44:22.977189,198,1623343462,975579012,world,-0.0919374674559,0.00164755433798,0.231592655182,0.0012135009747,0.00739148026332,-0.00466811237857,-0.999961078167
2021/06/10/18:44:22.996712,199,1623343462,995602637,world,-0.0919502153993,0.00163758918643,0.231573551893,0.0011871693423,0.0073864790611,-0.004655869212,-0.999961256981
2021/06/10/18:44:23.016881,200,1623343463,15581178,world,-0.0919442996383,0.0016334168613,0.23157247901,0.0011855821358,0.00735556427389,-0.00466392328963,-0.999961435795
2021/06/10/18:44:23.047068,201,1623343463,46168887,world,-0.0919331535697,0.00165569409728,0.231586396694,0.00117491313722,0.00740659143776,-0.00469600129873,-0.999960958958
2021/06/10/18:44:23.057875,202,1623343463,55971678,world,-0.0919364988804,0.00163931399584,0.231577023864,0.0012153040152,0.00739751430228,-0.00464198878035,-0.999961197376
2021/06/10/18:44:23.076237,203,1623343463,75592678,world,-0.0919449180365,0.00163599103689,0.231568485498,0.00119149091188,0.00738940713927,-0.00463805440813,-0.999961316586
2021/06/10/18:44:23.096720,204,1623343463,95629845,world,-0.0919635742903,0.00163732096553,0.231586039066,0.00121097487863,0.00739906355739,-0.00462698983029,-0.999961256981
2021/06/10/18:44:23.118084,205,1623343463,115614095,world,-0.0919383764267,0.0016428232193,0.231580004096,0.00118402508087,0.00737949740142,-0.00465090712532,-0.999961256981
2021/06/10/18:44:23.146890,206,1623343463,145527387,world,-0.0919380858541,0.00164188817143,0.231576353312,0.00117921584751,0.00741280475631,-0.00466072093695,-0.999961018562
2021/06/10/18:44:23.156216,207,1623343463,155523762,world,-0.0919537246227,0.00164082273841,0.231570035219,0.00117575796321,0.00737726688385,-0.0046297525987,-0.99996137619
2021/06/10/18:44:23.176633,208,1623343463,175587095,world,-0.0919326469302,0.00164348259568,0.231582760811,0.00117848953232,0.00738788954914,-0.00471196882427,-0.999960899353
2021/06/10/18:44:23.197031,209,1623343463,195789178,world,-0.0919358506799,0.00164440646768,0.231582075357,0.00124504801352,0.00737180234864,-0.00468583777547,-0.999961078167
2021/06/10/18:44:23.216600,210,1623343463,215656137,world,-0.0919501706958,0.00163723155856,0.23157081008,0.0012341508409,0.00736532593146,-0.00466412492096,-0.999961316586
2021/06/10/18:44:23.247160,211,1623343463,245592803,world,-0.0919487476349,0.0016301497817,0.231576263905,0.00123228807934,0.00738757429644,-0.00466059334576,-0.999961078167
2021/06/10/18:44:23.256521,212,1623343463,255545637,world,-0.0919312089682,0.00165105238557,0.231584995985,0.00119536556304,0.00739454990253,-0.00467297015712,-0.999961018562
2021/06/10/18:44:23.280886,213,1623343463,275591095,world,-0.0919452756643,0.00164417177439,0.23157119751,0.00118224741891,0.00732898339629,-0.00465307245031,-0.999961614609
2021/06/10/18:44:23.297861,214,1623343463,295584470,world,-0.09194034338,0.00164104998112,0.231574386358,0.0011781391222,0.0074109043926,-0.0046615852043,-0.999961078167
2021/06/10/18:44:23.326243,215,1623343463,325495553,world,-0.0919429510832,0.00163501501083,0.231582760811,0.00120805425104,0.00739413918927,-0.00465322472155,-0.999961197376
2021/06/10/18:44:23.336423,216,1623343463,335542053,world,-0.091932952404,0.0016472376883,0.231578826904,0.00121080398094,0.00739419320598,-0.00470654433593,-0.999960899353
2021/06/10/18:44:23.356637,217,1623343463,355551845,world,-0.0919507667422,0.00163390114903,0.231578826904,0.00121810904238,0.00735429115593,-0.0046288673766,-0.999961555004
2021/06/10/18:44:23.382291,218,1623343463,376153262,world,-0.0919503569603,0.0016254670918,0.231574118137,0.00125625380315,0.00737787317485,-0.00463715288788,-0.999961316586
2021/06/10/18:44:23.396262,219,1623343463,395556637,world,-0.0919850021601,0.00157412514091,0.231574475765,0.00137238600291,0.00729797314852,-0.00460359128192,-0.999961912632
2021/06/10/18:44:23.416407,220,1623343463,415563887,world,-0.0919482335448,0.00163815170527,0.23157338798,0.00120048399549,0.00738267786801,-0.00466179242358,-0.999961197376
2021/06/10/18:44:23.436190,221,1623343463,435519887,world,-0.0919758379459,0.00156436115503,0.231568962336,0.00140813947655,0.00734570575878,-0.00461237737909,-0.999961495399
2021/06/10/18:44:23.457868,222,1623343463,455494845,world,-0.0919884815812,0.00157327204943,0.2315800488,0.0013876715675,0.00729384599254,-0.00459321262315,-0.999961972237
2021/06/10/18:44:23.476536,223,1623343463,475570762,world,-0.0919441431761,0.00165260955691,0.231579169631,0.00116552482359,0.00739855086431,-0.00469120265916,-0.999961018562
2021/06/10/18:44:23.506666,224,1623343463,505607303,world,-0.0919931232929,0.00156918913126,0.231572926044,0.00138520845212,0.00727425422519,-0.00455720815808,-0.999962210655
2021/06/10/18:44:23.518070,225,1623343463,515625762,world,-0.0919449329376,0.00163692981005,0.231571808457,0.00120220507961,0.00740155857056,-0.00463410513476,-0.999961137772
2021/06/10/18:44:23.536942,226,1623343463,535786345,world,-0.0919446200132,0.00165111199021,0.231571048498,0.00118941254914,0.00736807892099,-0.00473125185817,-0.999961018562
2021/06/10/18:44:23.559275,227,1623343463,555670512,world,-0.0919396206737,0.0016369484365,0.231584191322,0.00120095373131,0.00739197200164,-0.00468974979594,-0.999961018562
2021/06/10/18:44:23.577581,228,1623343463,575495720,world,-0.091954022646,0.0016382150352,0.231557637453,0.00122565252241,0.00735515169799,-0.00462941685691,-0.999961495399
2021/06/10/18:44:23.596388,229,1623343463,595539262,world,-0.0919514149427,0.00163065269589,0.231589719653,0.00123422930483,0.00739659136161,-0.00464696669951,-0.999961078167
2021/06/10/18:44:23.616425,230,1623343463,615520303,world,-0.0919354408979,0.00163370743394,0.23158660531,0.00124757399317,0.00741621805355,-0.00466616824269,-0.999960899353
2021/06/10/18:44:23.635951,231,1623343463,635486345,world,-0.0919356122613,0.00165686011314,0.231568723917,0.00116630306002,0.00739307934418,-0.00466352840886,-0.999961137772
2021/06/10/18:44:23.656040,232,1623343463,655502595,world,-0.0919542610645,0.00162550061941,0.231594443321,0.00124938040972,0.00736876064911,-0.00464736064896,-0.999961256981
2021/06/10/18:44:23.676866,233,1623343463,675999095,world,-0.0919486135244,0.00163497403264,0.231577157974,0.00123595749028,0.00736282160506,-0.00463238358498,-0.99996137619
2021/06/10/18:44:23.696080,234,1623343463,695528220,world,-0.0919448882341,0.00163975730538,0.231571316719,0.00121341843624,0.00735008716583,-0.00464124232531,-0.999961555004
2021/06/10/18:44:23.715969,235,1623343463,715494845,world,-0.0919472426176,0.00162443891168,0.231589317322,0.00121829146519,0.00737540610135,-0.00462371809408,-0.999961435795
2021/06/10/18:44:23.736690,236,1623343463,735474053,world,-0.0919471383095,0.00164369866252,0.231585711241,0.0012331076432,0.00738703785464,-0.00463935080916,-0.999961256981
2021/06/10/18:44:23.767137,237,1623343463,765538137,world,-0.0919348150492,0.00163477659225,0.231578037143,0.00122373434715,0.00737200817093,-0.0046758595854,-0.999961137772
2021/06/10/18:44:23.777093,238,1623343463,775626137,world,-0.0919453650713,0.00163750350475,0.231576561928,0.00122472527437,0.00735076609999,-0.00465995958075,-0.99996137619
2021/06/10/18:44:23.796412,239,1623343463,795551012,world,-0.0919534415007,0.00164538249373,0.231596633792,0.0012028941419,0.00736335711554,-0.00465836422518,-0.999961316586
2021/06/10/18:44:23.822441,240,1623343463,816054970,world,-0.0919429808855,0.0016361027956,0.231587350368,0.00121676037088,0.0073663382791,-0.00467333383858,-0.999961197376
2021/06/10/18:44:23.836410,241,1623343463,835530887,world,-0.0919454395771,0.00164207443595,0.231567442417,0.00119315646589,0.00739905750379,-0.00468572601676,-0.999961018562
2021/06/10/18:44:23.866248,242,1623343463,865480678,world,-0.0919977277517,0.0015818849206,0.231580868363,0.00136817945167,0.00727104302496,-0.00457988120615,-0.999962210655
2021/06/10/18:44:23.876263,243,1623343463,875637012,world,-0.0919400155544,0.00164077058434,0.231587946415,0.00119563378394,0.00737075926736,-0.00471177417785,-0.999961018562
2021/06/10/18:44:23.896502,244,1623343463,895570720,world,-0.0919436737895,0.00163226947188,0.231590077281,0.00124866142869,0.00739114312455,-0.00463557336479,-0.999961256981
2021/06/10/18:44:23.916619,245,1623343463,915619970,world,-0.0919511467218,0.00163393095136,0.231573060155,0.00120508123655,0.00738613633439,-0.00464896997437,-0.999961256981
2021/06/10/18:44:23.947185,246,1623343463,945545470,world,-0.0919587314129,0.00163618475199,0.231587976217,0.00123831955716,0.0073635824956,-0.00465343287215,-0.999961316586
2021/06/10/18:44:23.966273,247,1623343463,965509512,world,-0.0919528603554,0.00164202600718,0.23159095645,0.00123250042088,0.00738172512501,-0.00464919349179,-0.999961256981
2021/06/10/18:44:23.976214,248,1623343463,975537553,world,-0.0919436961412,0.00163154676557,0.231575787067,0.00121228990611,0.00740111246705,-0.00462883757427,-0.999961256981
2021/06/10/18:44:23.996516,249,1623343463,995487678,world,-0.0919558703899,0.00163631141186,0.231586098671,0.00123233627528,0.00735004246235,-0.00463755382225,-0.999961495399
2021/06/10/18:44:24.017790,250,1623343464,15523387,world,-0.091949544847,0.00164721533656,0.231585413218,0.00123554421589,0.00739230634645,-0.00465724105015,-0.999961137772
2021/06/10/18:44:24.037058,251,1623343464,35627720,world,-0.0919393151999,0.00162440165877,0.231574475765,0.00122412922792,0.00735645089298,-0.00467264838517,-0.99996137619
2021/06/10/18:44:24.070021,252,1623343464,65820053,world,-0.0919375568628,0.00164021924138,0.231589406729,0.00119797687512,0.00739987567067,-0.00465227803215,-0.999961078167
2021/06/10/18:44:24.076354,253,1623343464,75616845,world,-0.0919510126114,0.00164168328047,0.231586098671,0.00122922926676,0.00734335137531,-0.00465456442907,-0.999961495399
2021/06/10/18:44:24.096244,254,1623343464,95531262,world,-0.0919466167688,0.00164461880922,0.231583401561,0.00121510657482,0.00737441657111,-0.00468278257176,-0.999961137772
2021/06/10/18:44:24.116894,255,1623343464,115675678,world,-0.0919505506754,0.00164061412215,0.231575980783,0.00119295867626,0.00739053962752,-0.00461652874947,-0.999961316586
2021/06/10/18:44:24.136507,256,1623343464,135623845,world,-0.0920074358582,0.0015747398138,0.231582254171,0.00137811154127,0.00725521100685,-0.00457211770117,-0.999962329865
2021/06/10/18:44:24.156286,257,1623343464,155600595,world,-0.0919525027275,0.00163676217198,0.231590747833,0.00122062372975,0.00735446996987,-0.00467542046681,-0.999961316586
2021/06/10/18:44:24.176567,258,1623343464,175564387,world,-0.0919439643621,0.00163567811251,0.23157261312,0.00123798463028,0.00739831244573,-0.00466061662883,-0.999961018562
2021/06/10/18:44:24.196248,259,1623343464,195500845,world,-0.0919444561005,0.00164337083697,0.231585308909,0.00120614294428,0.007384265773,-0.00464084837586,-0.999961316586
2021/06/10/18:44:24.216943,260,1623343464,215782470,world,-0.0919365137815,0.00164622813463,0.23157940805,0.00114565354306,0.00741831911728,-0.0046837744303,-0.999960899353
2021/06/10/18:44:24.236143,261,1623343464,235472678,world,-0.0919404327869,0.00163923949003,0.231575280428,0.00119477347471,0.00740022910759,-0.00471265474334,-0.999960839748
2021/06/10/18:44:24.256461,262,1623343464,255570512,world,-0.0919609889388,0.00162955746055,0.23157453537,0.00121341878548,0.00738171767443,-0.00462431507185,-0.999961316586
2021/06/10/18:44:24.277184,263,1623343464,275553762,world,-0.0919626504183,0.00163206085563,0.23156966269,0.00121135113295,0.00737138325348,-0.00464523676783,-0.999961316586
2021/06/10/18:44:24.296189,264,1623343464,295469262,world,-0.0919510275126,0.00163964927197,0.231582552195,0.00119980215095,0.00736343255267,-0.00465742591769,-0.99996137619
2021/06/10/18:44:24.326582,265,1623343464,325746595,world,-0.0919486731291,0.0016400180757,0.23157389462,0.00120400055312,0.00736676948145,-0.00463241292164,-0.999961495399
2021/06/10/18:44:24.336209,266,1623343464,335519803,world,-0.0919488668442,0.00164768099785,0.231578066945,0.0011718806345,0.00740387197584,-0.00468068988994,-0.999960958958
2021/06/10/18:44:24.356076,267,1623343464,355471345,world,-0.0919415354729,0.00164154544473,0.231588453054,0.00118498271331,0.00741296028718,-0.00463508954272,-0.999961137772
2021/06/10/18:44:24.377584,268,1623343464,375790928,world,-0.0919270217419,0.00164764001966,0.231576085091,0.00118447956629,0.00740661844611,-0.00466408766806,-0.999961018562
2021/06/10/18:44:24.396196,269,1623343464,395529303,world,-0.0919501036406,0.0016332231462,0.231586888433,0.00119988794904,0.00738190393895,-0.00464489404112,-0.999961316586
2021/06/10/18:44:24.416299,270,1623343464,415550970,world,-0.0919460058212,0.00165903568268,0.231572642922,0.00115305557847,0.00739715574309,-0.00467722350731,-0.999961078167
2021/06/10/18:44:24.435843,271,1623343464,435468054,world,-0.09195009619,0.00163723900914,0.231585711241,0.00123427761719,0.00736561743543,-0.00468460796401,-0.999961197376
2021/06/10/18:44:24.456059,272,1623343464,455494095,world,-0.091951712966,0.00164104253054,0.231581360102,0.00119546602946,0.00739205302671,-0.00466273212805,-0.999961137772
2021/06/10/18:44:24.476002,273,1623343464,475452220,world,-0.0919596403837,0.00164378061891,0.231571033597,0.00121059874073,0.00736773340032,-0.00466868560761,-0.999961197376
2021/06/10/18:44:24.496052,274,1623343464,495474345,world,-0.0919412225485,0.00163431093097,0.231588125229,0.00123770488426,0.00739193288609,-0.00466055609286,-0.999961078167
2021/06/10/18:44:24.516330,275,1623343464,515618095,world,-0.0919411927462,0.00163399800658,0.231584131718,0.00121607142501,0.00740259606391,-0.00463528325781,-0.999961137772
2021/06/10/18:44:24.535846,276,1623343464,535524887,world,-0.0919498205185,0.00164246186614,0.231581270695,0.00119665835518,0.00740396790206,-0.00468190386891,-0.999961018562
2021/06/10/18:44:24.566234,277,1623343464,565530012,world,-0.091941639781,0.00163646042347,0.231579855084,0.00121157476678,0.00737679377198,-0.00466377520934,-0.999961197376
2021/06/10/18:44:24.578438,278,1623343464,575706512,world,-0.0919449180365,0.001638866961,0.231586903334,0.0012061430607,0.00739299831912,-0.00466448254883,-0.999961078167
2021/06/10/18:44:24.596085,279,1623343464,595533095,world,-0.0919581279159,0.00163106992841,0.231582969427,0.001204406959,0.0073753176257,-0.00464618345723,-0.999961316586
2021/06/10/18:44:24.618480,280,1623343464,615675387,world,-0.0919446349144,0.00162884220481,0.231583923101,0.00124198908452,0.00738065224141,-0.00464669754729,-0.999961256981
2021/06/10/18:44:24.636271,281,1623343464,635473804,world,-0.0919489040971,0.0016295388341,0.231580331922,0.00122573890258,0.0073779784143,-0.00467601697892,-0.999961137772
2021/06/10/18:44:24.656141,282,1623343464,655497054,world,-0.0919438451529,0.00164047256112,0.231577202678,0.00119729863945,0.00736703863367,-0.00465508643538,-0.99996137619
2021/06/10/18:44:24.686405,283,1623343464,685597762,world,-0.0919333398342,0.00164175406098,0.231585115194,0.0012125360081,0.00739391567186,-0.00468255905434,-0.999960958958
2021/06/10/18:44:24.696539,284,1623343464,695484512,world,-0.0919524282217,0.00163130834699,0.231579855084,0.00123744050507,0.00734799588099,-0.00465083308518,-0.999961435795
2021/06/10/18:44:24.716108,285,1623343464,715523554,world,-0.0919272601604,0.00163773447275,0.231578335166,0.00122007646132,0.00737534882501,-0.00469914497808,-0.999961018562
2021/06/10/18:44:24.736956,286,1623343464,735525804,world,-0.0919448286295,0.00163294747472,0.231596961617,0.00125309452415,0.00736791780218,-0.00467375852168,-0.999961137772
2021/06/10/18:44:24.756042,287,1623343464,755504845,world,-0.0919519066811,0.0016358718276,0.231584057212,0.00121458119247,0.00737268058583,-0.00467754434794,-0.999961137772
2021/06/10/18:44:24.791369,288,1623343464,786103262,world,-0.0919431298971,0.00164860859513,0.231582909822,0.00117955484893,0.00741465995088,-0.00465763639659,-0.999961018562
2021/06/10/18:44:24.796307,289,1623343464,795625595,world,-0.0919509977102,0.00164506956935,0.231581762433,0.00121400738135,0.00737719517201,-0.00464030448347,-0.999961316586
2021/06/10/18:44:24.827032,290,1623343464,817284095,world,-0.0919439643621,0.00164209678769,0.231576398015,0.00120502198115,0.00738700293005,-0.00467321649194,-0.999961137772
2021/06/10/18:44:24.836123,291,1623343464,835499804,world,-0.0919455513358,0.00163703039289,0.231591597199,0.00122051930521,0.00737604685128,-0.00466194888577,-0.999961197376
2021/06/10/18:44:24.857018,292,1623343464,855628012,world,-0.0919512063265,0.00163716077805,0.231579214334,0.00123877753504,0.00735615938902,-0.00462075229734,-0.999961555004
2021/06/10/18:44:24.886564,293,1623343464,885587262,world,-0.0919483602047,0.00163485482335,0.231583073735,0.00120967102703,0.00737305218354,-0.00465112319216,-0.999961316586
2021/06/10/18:44:24.896429,294,1623343464,895588012,world,-0.0919504761696,0.00165200605989,0.231579720974,0.00116340478417,0.00739179132506,-0.00468790065497,-0.999961018562
2021/06/10/18:44:24.916434,295,1623343464,915550054,world,-0.0919423550367,0.0016407109797,0.231591746211,0.00120150484145,0.00739006279036,-0.0046403342858,-0.999961256981
2021/06/10/18:44:24.936189,296,1623343464,935541637,world,-0.0920002609491,0.00157912820578,0.23157645762,0.00134679977782,0.00726058566943,-0.00463989982381,-0.999962031841
2021/06/10/18:44:24.956462,297,1623343464,955739095,world,-0.091947928071,0.00163670629263,0.23157542944,0.00121157092508,0.00739909335971,-0.00461803376675,-0.999961316586
2021/06/10/18:44:24.989004,298,1623343464,985552470,world,-0.0919402390718,0.00163695216179,0.231585413218,0.00122139882296,0.00739200832322,-0.00465098954737,-0.999961137772
2021/06/10/18:44:24.996862,299,1623343464,995540304,world,-0.0919336304069,0.00165029987693,0.231591016054,0.00120929512195,0.00741863949224,-0.00466735288501,-0.999960899353
2021/06/10/18:44:25.016186,300,1623343465,15597595,world,-0.0919475704432,0.00163876637816,0.231585264206,0.00121850031428,0.00736545259133,-0.00466942228377,-0.999961256981
2021/06/10/18:44:25.036178,301,1623343465,35589720,world,-0.091983564198,0.00157446041703,0.231577798724,0.00133930391166,0.00729805417359,-0.00458529870957,-0.999962031841
2021/06/10/18:44:25.056532,302,1623343465,55482054,world,-0.0919432640076,0.00164269655943,0.231583684683,0.00119600992184,0.00739339413121,-0.00465445406735,-0.999961137772
2021/06/10/18:44:25.077173,303,1623343465,75949304,world,-0.0919358804822,0.00163864716887,0.23159058392,0.00119383458514,0.00741180684417,-0.00467389449477,-0.999960958958
2021/06/10/18:44:25.095929,304,1623343465,95528762,world,-0.0919338613749,0.0016323029995,0.231585949659,0.00124040269293,0.00739622069523,-0.00467402907088,-0.999961018562
2021/06/10/18:44:25.115915,305,1623343465,115532304,world,-0.0919809490442,0.00157743692398,0.231580153108,0.00135690311436,0.00730976043269,-0.0045995307155,-0.999961853027
2021/06/10/18:44:25.136109,306,1623343465,135545054,world,-0.091950148344,0.0016283094883,0.231591746211,0.00123650522437,0.00737899076194,-0.00465023657307,-0.999961256981
2021/06/10/18:44:25.156153,307,1623343465,155551637,world,-0.0919426977634,0.00164962559938,0.231581151485,0.00120109133422,0.0073952707462,-0.00467471266165,-0.999961018562
2021/06/10/18:44:25.176304,308,1623343465,175536220,world,-0.0919409394264,0.00162837654352,0.231584638357,0.00126082857605,0.00738244690001,-0.00464007304981,-0.999961197376
2021/06/10/18:44:25.196229,309,1623343465,195616595,world,-0.0919436216354,0.00163830071688,0.231582611799,0.00119237403851,0.00739441579208,-0.00467565236613,-0.999961078167
2021/06/10/18:44:25.216163,310,1623343465,215623512,world,-0.0919493064284,0.00164699926972,0.231586694717,0.00120249553584,0.00738813122734,-0.00461885984987,-0.999961316586
2021/06/10/18:44:25.248438,311,1623343465,246000387,world,-0.0919520556927,0.00163686275482,0.231578186154,0.00122310826555,0.00735570397228,-0.00465227663517,-0.99996137619
2021/06/10/18:44:25.256874,312,1623343465,255606095,world,-0.0919393599033,0.00164234265685,0.231585234404,0.00119498546701,0.00738706067204,-0.00467531662434,-0.999961137772
2021/06/10/18:44:25.276310,313,1623343465,275583262,world,-0.0919336676598,0.00165236368775,0.231582418084,0.00116720504593,0.00739231472835,-0.0046867467463,-0.999961018562
2021/06/10/18:44:25.296228,314,1623343465,295570679,world,-0.0919471234083,0.00164829939604,0.231575071812,0.00121015543118,0.00738142803311,-0.00464970804751,-0.999961197376
2021/06/10/18:44:25.316770,315,1623343465,315521512,world,-0.0919919312,0.00156620144844,0.231585770845,0.00137277354952,0.0072816638276,-0.00461736088619,-0.999961972237
2021/06/10/18:44:25.336346,316,1623343465,335503554,world,-0.0919381082058,0.00165464729071,0.231577903032,0.00116764847189,0.00740647222847,-0.0046907113865,-0.999960958958
2021/06/10/18:44:25.356078,317,1623343465,355513054,world,-0.0919427126646,0.00165027007461,0.231579124928,0.00120510358829,0.00738126318902,-0.00463578943163,-0.999961316586
2021/06/10/18:44:25.376671,318,1623343465,375854304,world,-0.0919486880302,0.00163721293211,0.231588318944,0.00119830481708,0.00737368641421,-0.00467409472913,-0.999961197376
2021/06/10/18:44:25.398286,319,1623343465,395626137,world,-0.0919430553913,0.00164221972227,0.231577008963,0.00122694601305,0.00737404404208,-0.00466384226456,-0.999961197376
2021/06/10/18:44:25.417132,320,1623343465,415585012,world,-0.0919444710016,0.00163764879107,0.231589436531,0.00121164182201,0.00739679904655,-0.0046462956816,-0.999961197376
2021/06/10/18:44:25.437965,321,1623343465,435668595,world,-0.0919896811247,0.00157586485147,0.231574758887,0.00136664125603,0.00727009214461,-0.00461143720895,-0.999962091446
2021/06/10/18:44:25.456403,322,1623343465,455592470,world,-0.0919496417046,0.00164675340056,0.231580153108,0.00119892309885,0.00737967621535,-0.00465321680531,-0.999961256981
2021/06/10/18:44:25.477263,323,1623343465,475616345,world,-0.091938495636,0.00163570791483,0.231578573585,0.00120059598703,0.00739339413121,-0.00466656172648,-0.999961137772
2021/06/10/18:44:25.506546,324,1623343465,505556429,world,-0.0919392108917,0.00163850933313,0.23158569634,0.00123343593441,0.00740639027208,-0.00466753169894,-0.999960958958
2021/06/10/18:44:25.515991,325,1623343465,515537845,world,-0.0919448956847,0.00164142251015,0.231577396393,0.00118246383499,0.00739146163687,-0.00461656507105,-0.999961316586
2021/06/10/18:44:25.539885,326,1623343465,535581554,world,-0.0919917225838,0.0015684068203,0.231576129794,0.00137510150671,0.00728459702805,-0.00457077659667,-0.999962091446
2021/06/10/18:44:25.556193,327,1623343465,555502887,world,-0.0919406190515,0.00164736062288,0.231574594975,0.00117737916298,0.00738285947591,-0.00468553230166,-0.999961078167
2021/06/10/18:44:25.576257,328,1623343465,575516220,world,-0.0919348075986,0.00163663178682,0.231583356857,0.00121163844597,0.00742375059053,-0.00464100670069,-0.999960958958
2021/06/10/18:44:25.607533,329,1623343465,605580637,world,-0.091941729188,0.00163985416293,0.231571465731,0.0011992136715,0.0073683434166,-0.00468195509166,-0.999961256981
2021/06/10/18:44:25.616083,330,1623343465,615523554,world,-0.0919573307037,0.00162946805358,0.231588065624,0.00123505969532,0.00736460229382,-0.00463897036389,-0.99996137619
2021/06/10/18:44:25.638067,331,1623343465,635541845,world,-0.0919410288334,0.00164484605193,0.231582403183,0.0011941177072,0.0074088415131,-0.00466963276267,-0.999960958958
2021/06/10/18:44:25.656196,332,1623343465,655530137,world,-0.0919541567564,0.00163728371263,0.23158377409,0.00121829891577,0.00738048739731,-0.00465046707541,-0.999961197376
2021/06/10/18:44:25.676964,333,1623343465,675823970,world,-0.0919519811869,0.00164249911904,0.23158121109,0.00120079342742,0.007379245013,-0.00463774939999,-0.99996137619
2021/06/10/18:44:25.716289,334,1623343465,705533220,world,-0.0919443517923,0.00163256004453,0.231584280729,0.00122847314924,0.00736405840144,-0.00464098947123,-0.99996137619
2021/06/10/18:44:25.719928,335,1623343465,715978512,world,-0.091951020062,0.0016478933394,0.231593206525,0.00122079870198,0.00736702373251,-0.00467340834439,-0.999961197376
2021/06/10/18:44:25.736140,336,1623343465,735517762,world,-0.0919474437833,0.00164308026433,0.231580764055,0.00121813511942,0.00737114483491,-0.00465047499165,-0.999961316586
2021/06/10/18:44:25.755839,337,1623343465,755462429,world,-0.0919516682625,0.00164445862174,0.231577783823,0.0012106357608,0.0073561752215,-0.00465019140393,-0.999961435795
2021/06/10/18:44:25.776638,338,1623343465,775524054,world,-0.0919516533613,0.00163281708956,0.231591761112,0.00121682009194,0.00738782761618,-0.00461492687464,-0.999961316586
2021/06/10/18:44:25.808222,339,1623343465,805513095,world,-0.0919390320778,0.00164528563619,0.231581360102,0.00120462744962,0.00741259846836,-0.00466232467443,-0.999960958958
2021/06/10/18:44:25.816284,340,1623343465,815526012,world,-0.0919394791126,0.00165791064501,0.231589615345,0.00116793497,0.00739121763036,-0.00464995345101,-0.999961256981
2021/06/10/18:44:25.836568,341,1623343465,835525012,world,-0.0919493734837,0.00164402648807,0.231576144695,0.00118704268243,0.00736117549241,-0.00468594115227,-0.999961256981
2021/06/10/18:44:25.856177,342,1623343465,855548304,world,-0.0919421315193,0.00163873657584,0.231579214334,0.00123003788758,0.00737518351525,-0.00464230868965,-0.999961316586
2021/06/10/18:44:25.876276,343,1623343465,875734845,world,-0.0919316709042,0.0016481615603,0.231584757566,0.00122262106743,0.00740859564394,-0.00466996058822,-0.999960958958
2021/06/10/18:44:25.896251,344,1623343465,895550095,world,-0.0919354110956,0.00165002048016,0.231575399637,0.00119154702406,0.00740577094257,-0.0046615852043,-0.999961018562
2021/06/10/18:44:25.916194,345,1623343465,915552637,world,-0.091937571764,0.00164609029889,0.231586173177,0.00120685889851,0.00743609759957,-0.0046570636332,-0.999960780144
2021/06/10/18:44:25.936288,346,1623343465,935580304,world,-0.0919855833054,0.00157847255468,0.23157992959,0.00136945361737,0.00728691322729,-0.00459383660927,-0.999961972237
